[{"routes": [{"destination": {"icao": "EGLL", "iata": "LHR", "name": "London Heathrow, London", "shortName": "Heathrow", "municipalityName": "London", "location": {"lat": 51.4706, "lon": -0.461941}, "countryCode": "GB"}, "averageDailyFlights": 11.86, "operators": [{"name": "Air France"}, {"name": "British Airways"}]}, {"destination": {"icao": "DAAG", "iata": "ALG", "name": "Houari Boumediene, Algiers", "shortName": "Houari Boumediene", "municipalityName": "Algiers", "location": {"lat": 36.691, "lon": 3.215409}, "countryCode": "DZ"}, "averageDailyFlights": 9.88, "operators": [{"name": "Air Algerie"}, {"name": "Air France"}, {"name": "ASL  France"}]}, {"destination": {"icao": "EHAM", "iata": "AMS", "name": "Amsterdam Schiphol, Amsterdam", "shortName": "Schiphol", "municipalityName": "Amsterdam", "location": {"lat": 52.3086, "lon": 4.763889}, "countryCode": "NL"}, "averageDailyFlights": 9.71, "operators": [{"name": "Air France"}, {"name": "KLM"}]}, {"destination": {"icao": "EDDF", "iata": "FRA", "name": "Frankfurt-am-Main, Frankfurt-am-Main", "municipalityName": "Frankfurt-am-Main", "location": {"lat": 50.0264, "lon": 8.543129}, "countryCode": "DE"}, "averageDailyFlights": 9.43, "operators": [{"name": "Air France"}, {"name": "ASL Airlines Belgium"}, {"name": "Lufthansa"}]}, {"destination": {"icao": "LFMN", "iata": "NCE", "name": "Nice-C\u00f4te d'Azur, Nice", "shortName": "C\u00f4te d'Azur", "municipalityName": "Nice", "location": {"lat": 43.6584, "lon": 7.215869}, "countryCode": "FR"}, "averageDailyFlights": 9.16, "operators": [{"name": "Air France"}, {"name": "easyJet"}]}, {"destination": {"icao": "LIML", "iata": "LIN", "name": "Linate, Milan", "shortName": "Linate", "municipalityName": "Milan", "location": {"lat": 45.4451, "lon": 9.27674}, "countryCode": "IT"}, "averageDailyFlights": 9.14, "operators": [{"name": "Air France"}, {"name": "Alitalia"}, {"name": "easyJet"}, {"name": "ITY"}]}, {"destination": {"icao": "LIMC", "iata": "MXP", "name": "Malpensa, Milan", "shortName": "Malpensa", "municipalityName": "Milan", "location": {"lat": 45.6306, "lon": 8.72811}, "countryCode": "IT"}, "averageDailyFlights": 9.05, "operators": [{"name": "Air France"}, {"name": "Bluebird Nordic"}, {"name": "easyJet"}, {"name": "EAT Leipzig"}]}, {"destination": {"icao": "LEBL", "iata": "BCN", "name": "Barcelona, Barcelona", "municipalityName": "Barcelona", "location": {"lat": 41.2971, "lon": 2.078459}, "countryCode": "ES"}, "averageDailyFlights": 9.0, "operators": [{"name": "Air France"}, {"name": "easyJet"}, {"name": "Vueling"}]}, {"destination": {"icao": "EDDM", "iata": "MUC", "name": "Munich, Munich", "municipalityName": "Munich", "location": {"lat": 48.3538, "lon": 11.7861}, "countryCode": "DE"}, "averageDailyFlights": 8.86, "operators": [{"name": "Air France"}, {"name": "Lufthansa"}]}, {"destination": {"icao": "EKCH", "iata": "CPH", "name": "Copenhagen Kastrup, Copenhagen", "shortName": "Kastrup", "municipalityName": "Copenhagen", "location": {"lat": 55.6179, "lon": 12.656}, "countryCode": "DK"}, "averageDailyFlights": 8.43, "operators": [{"name": "Air France"}, {"name": "ASL Airlines Belgium"}, {"name": "easyJet"}, {"name": "Norwegian Air International"}, {"name": "NSZ"}, {"name": "SAS"}]}, {"destination": {"icao": "LEMD", "iata": "MAD", "name": "Adolfo Su\u00e1rez Madrid\u2013Barajas, Madrid", "shortName": "Adolfo Su\u00e1rez \u2013Barajas", "municipalityName": "Madrid", "location": {"lat": 40.4936, "lon": -3.56676}, "countryCode": "ES"}, "averageDailyFlights": 8.14, "operators": [{"name": "ABR"}, {"name": "Air France"}, {"name": "easyJet"}, {"name": "Iberia"}, {"name": "Iberia Express"}]}, {"destination": {"icao": "LSGG", "iata": "GVA", "name": "Geneva Cointrin, Geneva", "shortName": "Cointrin", "municipalityName": "Geneva", "location": {"lat": 46.2381, "lon": 6.10895}, "countryCode": "CH"}, "averageDailyFlights": 8.0, "operators": [{"name": "Air France"}]}, {"destination": {"icao": "KJFK", "iata": "JFK", "name": "John F Kennedy, New York", "shortName": "John F Kennedy", "municipalityName": "New York", "location": {"lat": 40.6398, "lon": -73.7789}, "countryCode": "US"}, "averageDailyFlights": 7.71, "operators": [{"name": "Air France"}, {"name": "American"}, {"name": "Delta Air Lines"}]}, {"destination": {"icao": "LIRF", "iata": "FCO", "name": "Leonardo da Vinci\u2013Fiumicino, Rome", "shortName": "Leonardo da Vinci\u2013Fiumicino", "municipalityName": "Rome", "location": {"lat": 41.8045, "lon": 12.2508}, "countryCode": "IT"}, "averageDailyFlights": 7.71, "operators": [{"name": "Air France"}, {"name": "Alitalia"}, {"name": "ASL Airlines Belgium"}, {"name": "ITY"}]}, {"destination": {"icao": "EIDW", "iata": "DUB", "name": "Dublin, Dublin", "municipalityName": "Dublin", "location": {"lat": 53.4213, "lon": -6.27007}, "countryCode": "IE"}, "averageDailyFlights": 7.0, "operators": [{"name": "Aer Lingus"}, {"name": "Air France"}, {"name": "ASL Airlines France"}]}, {"destination": {"icao": "LPPT", "iata": "LIS", "name": "Lisbon Portela, Lisbon", "shortName": "Portela", "municipalityName": "Lisbon", "location": {"lat": 38.7813, "lon": -9.135919}, "countryCode": "PT"}, "averageDailyFlights": 7.0, "operators": [{"name": "Air France"}, {"name": "ASL Airlines Belgium"}, {"name": "easyJet"}]}, {"destination": {"icao": "EDDB", "iata": "BER", "name": "Berlin Brandenburg, Berlin", "shortName": "Brandenburg", "municipalityName": "Berlin", "location": {"lat": 52.35139, "lon": 13.493889}, "countryCode": "DE"}, "averageDailyFlights": 6.71, "operators": [{"name": "Air France"}, {"name": "easyJet"}]}, {"destination": {"icao": "LFBD", "iata": "BOD", "name": "Bordeaux-M\u00e9rignac, Bordeaux/M\u00e9rignac", "shortName": "Bordeaux-M\u00e9rignac", "municipalityName": "Bordeaux/M\u00e9rignac", "location": {"lat": 44.8283, "lon": -0.715556}, "countryCode": "FR"}, "averageDailyFlights": 6.71, "operators": [{"name": "Air France"}]}, {"destination": {"icao": "LFLL", "iata": "LYS", "name": "Lyon Saint-Exup\u00e9ry, Lyon", "shortName": "Saint-Exup\u00e9ry", "municipalityName": "Lyon", "location": {"lat": 45.7264, "lon": 5.090829}, "countryCode": "FR"}, "averageDailyFlights": 6.71, "operators": [{"name": "ABR"}, {"name": "Air France"}, {"name": "ASL Airlines Belgium"}]}, {"destination": {"icao": "LFML", "iata": "MRS", "name": "Marseille Provence, Marseille", "shortName": "Provence", "municipalityName": "Marseille", "location": {"lat": 43.43927, "lon": 5.221424}, "countryCode": "FR"}, "averageDailyFlights": 6.54, "operators": [{"name": "Air France"}, {"name": "ASL Airlines France"}]}, {"destination": {"icao": "LFBO", "iata": "TLS", "name": "Toulouse-Blagnac, Toulouse-Blagnac", "municipalityName": "Toulouse-Blagnac", "location": {"lat": 43.6291, "lon": 1.363819}, "countryCode": "FR"}, "averageDailyFlights": 6.45, "operators": [{"name": "SWN"}, {"name": "Air France"}]}, {"destination": {"icao": "EGCC", "iata": "MAN", "name": "Manchester, Manchester", "municipalityName": "Manchester", "location": {"lat": 53.3537, "lon": -2.27495}, "countryCode": "GB"}, "averageDailyFlights": 6.43, "operators": [{"name": "Air France"}, {"name": "easyJet"}]}, {"destination": {"icao": "LOWW", "iata": "VIE", "name": "Schwechat, Vienna", "shortName": "Schwechat", "municipalityName": "Vienna", "location": {"lat": 48.1103, "lon": 16.5697}, "countryCode": "AT"}, "averageDailyFlights": 6.43, "operators": [{"name": "Air France"}, {"name": "Austrian"}]}, {"destination": {"icao": "LSZH", "iata": "ZRH", "name": "Kloten, Zurich", "shortName": "Kloten", "municipalityName": "Zurich", "location": {"lat": 47.4647, "lon": 8.549169}, "countryCode": "CH"}, "averageDailyFlights": 6.43, "operators": [{"name": "Air France"}, {"name": "SWISS"}]}, {"destination": {"icao": "EFHK", "iata": "HEL", "name": "Helsinki Vantaa, Helsinki", "shortName": "Vantaa", "municipalityName": "Helsinki", "location": {"lat": 60.3172, "lon": 24.9633}, "countryCode": "FI"}, "averageDailyFlights": 6.29, "operators": [{"name": "Air France"}, {"name": "ASL Airlines Belgium"}, {"name": "Finnair"}]}, {"destination": {"icao": "LTFM", "iata": "IST", "name": "Istanbul, Istanbul", "municipalityName": "Istanbul", "location": {"lat": 41.275276, "lon": 28.751944}, "countryCode": "TR"}, "averageDailyFlights": 6.14, "operators": [{"name": "Air France"}, {"name": "Turkish"}]}, {"destination": {"icao": "LIPZ", "iata": "VCE", "name": "Venice Marco Polo, Venice", "shortName": "Marco Polo", "municipalityName": "Venice", "location": {"lat": 45.5053, "lon": 12.3519}, "countryCode": "IT"}, "averageDailyFlights": 6.14, "operators": [{"name": "Air France"}, {"name": "ASL Airlines France"}, {"name": "easyJet"}]}, {"destination": {"icao": "EPWA", "iata": "WAW", "name": "Warsaw Chopin, Warsaw", "shortName": "Chopin", "municipalityName": "Warsaw", "location": {"lat": 52.1657, "lon": 20.9671}, "countryCode": "PL"}, "averageDailyFlights": 5.71, "operators": [{"name": "Air France"}, {"name": "ASL Airlines Belgium"}, {"name": "LOT - Polish"}]}, {"destination": {"icao": "OMDB", "iata": "DXB", "name": "Dubai, Dubai City", "shortName": "Dubai", "municipalityName": "Dubai City", "location": {"lat": 25.252798, "lon": 55.3644}, "countryCode": "AE"}, "averageDailyFlights": 5.0, "operators": [{"name": "Air France"}, {"name": "Emirates"}]}, {"destination": {"icao": "ESSA", "iata": "ARN", "name": "Stockholm-Arlanda, Stockholm", "shortName": "Arlanda", "municipalityName": "Stockholm", "location": {"lat": 59.6519, "lon": 17.9186}, "countryCode": "SE"}, "averageDailyFlights": 5.0, "operators": [{"name": "Air France"}, {"name": "ASL Airlines Belgium"}, {"name": "Norwegian Air International"}, {"name": "NSZ"}, {"name": "SAS"}]}, {"destination": {"icao": "EDDH", "iata": "HAM", "name": "Hamburg, Hamburg", "municipalityName": "Hamburg", "location": {"lat": 53.6304, "lon": 9.988229}, "countryCode": "DE"}, "averageDailyFlights": 4.86, "operators": [{"name": "Air France"}, {"name": "Eurowings"}]}, {"destination": {"icao": "LLBG", "iata": "TLV", "name": "Ben Gurion, Tel Aviv Yafo", "shortName": "Ben Gurion", "municipalityName": "Tel Aviv Yafo", "location": {"lat": 32.0114, "lon": 34.8867}, "countryCode": "IL"}, "averageDailyFlights": 4.6, "operators": [{"name": "Air France"}, {"name": "easyJet"}, {"name": "El Al"}]}, {"destination": {"icao": "LIRQ", "iata": "FLR", "name": "Peretola, Firenze", "shortName": "Peretola", "municipalityName": "Firenze", "location": {"lat": 43.81, "lon": 11.2051}, "countryCode": "IT"}, "averageDailyFlights": 4.57, "operators": [{"name": "Air France"}]}, {"destination": {"icao": "EDDL", "iata": "DUS", "name": "D\u00fcsseldorf, Duesseldorf", "shortName": "D\u00fcsseldorf", "municipalityName": "Duesseldorf", "location": {"lat": 51.2895, "lon": 6.766779}, "countryCode": "DE"}, "averageDailyFlights": 4.43, "operators": [{"name": "Air France"}]}, {"destination": {"icao": "LFRS", "iata": "NTE", "name": "Nantes Atlantique, Nantes", "shortName": "Atlantique", "municipalityName": "Nantes", "location": {"lat": 47.1532, "lon": -1.61073}, "countryCode": "FR"}, "averageDailyFlights": 4.43, "operators": [{"name": "Air France"}]}, {"destination": {"icao": "LROP", "iata": "OTP", "name": "Henri Coand\u0103, Bucharest", "shortName": "Henri Coand\u0103", "municipalityName": "Bucharest", "location": {"lat": 44.5722, "lon": 26.1022}, "countryCode": "RO"}, "averageDailyFlights": 4.29, "operators": [{"name": "Air France"}, {"name": "ASL Airlines Belgium"}, {"name": "TAROM"}]}, {"destination": {"icao": "EGPH", "iata": "EDI", "name": "Edinburgh, Edinburgh", "municipalityName": "Edinburgh", "location": {"lat": 55.95, "lon": -3.372499}, "countryCode": "GB"}, "averageDailyFlights": 4.29, "operators": [{"name": "Air France"}, {"name": "ASL Airlines Belgium"}, {"name": "easyJet"}]}, {"destination": {"icao": "LGAV", "iata": "ATH", "name": "Eleftherios Venizelos, Athens", "shortName": "Eleftherios Venizelos", "municipalityName": "Athens", "location": {"lat": 37.9364, "lon": 23.944498}, "countryCode": "GR"}, "averageDailyFlights": 4.14, "operators": [{"name": "Aegean"}, {"name": "Air France"}, {"name": "ASL Airlines Belgium"}, {"name": "Sky Express"}]}, {"destination": {"icao": "GMMN", "iata": "CMN", "name": "Mohammed V, Casablanca", "shortName": "Mohammed V", "municipalityName": "Casablanca", "location": {"lat": 33.3675, "lon": -7.58997}, "countryCode": "MA"}, "averageDailyFlights": 4.14, "operators": [{"name": "Air France"}, {"name": "EAT Leipzig"}, {"name": "Royal Air Maroc"}]}, {"destination": {"icao": "LFMT", "iata": "MPL", "name": "Montpellier-M\u00e9diterran\u00e9e, Montpellier/M\u00e9diterran\u00e9e", "shortName": "Montpellier-M\u00e9diterran\u00e9e", "municipalityName": "Montpellier/M\u00e9diterran\u00e9e", "location": {"lat": 43.5762, "lon": 3.96301}, "countryCode": "FR"}, "averageDailyFlights": 4.02, "operators": [{"name": "Air France"}, {"name": "SWN"}]}, {"destination": {"icao": "KATL", "iata": "ATL", "name": "Hartsfield Jackson Atlanta, Atlanta", "shortName": "Hartsfield Jackson", "municipalityName": "Atlanta", "location": {"lat": 33.6367, "lon": -84.4281}, "countryCode": "US"}, "averageDailyFlights": 4.0, "operators": [{"name": "Air France"}, {"name": "Delta Air Lines"}]}, {"destination": {"icao": "CYUL", "iata": "YUL", "name": "Montr\u00e9al Pierre Elliott Trudeau, Montr\u00e9al", "shortName": "Pierre Elliott Trudeau", "municipalityName": "Montr\u00e9al", "location": {"lat": 45.4706, "lon": -73.7408}, "countryCode": "CA"}, "averageDailyFlights": 4.0, "operators": [{"name": "Air Canada"}, {"name": "Air France"}, {"name": "Air Transat"}]}, {"destination": {"icao": "DTTA", "iata": "TUN", "name": "Tunis Carthage, Tunis", "shortName": "Carthage", "municipalityName": "Tunis", "location": {"lat": 36.851, "lon": 10.227199}, "countryCode": "TN"}, "averageDailyFlights": 4.0, "operators": [{"name": "Air France"}, {"name": "Express Air"}, {"name": "Nouvelair Tunisie"}]}, {"destination": {"icao": "ENGM", "iata": "OSL", "name": "Oslo Gardermoen, Oslo", "shortName": "Gardermoen", "municipalityName": "Oslo", "location": {"lat": 60.1939, "lon": 11.100399}, "countryCode": "NO"}, "averageDailyFlights": 3.57, "operators": [{"name": "Air France"}, {"name": "ASL Airlines Belgium"}, {"name": "Norwegian Air Shuttle"}, {"name": "SAS"}]}, {"destination": {"icao": "EGKK", "iata": "LGW", "name": "London Gatwick, London", "shortName": "Gatwick", "municipalityName": "London", "location": {"lat": 51.1481, "lon": -0.190277}, "countryCode": "GB"}, "averageDailyFlights": 3.43, "operators": [{"name": "easyJet"}]}, {"destination": {"icao": "LKPR", "iata": "PRG", "name": "Ruzyn\u011b, Prague", "shortName": "Ruzyn\u011b", "municipalityName": "Prague", "location": {"lat": 50.1008, "lon": 14.26}, "countryCode": "CZ"}, "averageDailyFlights": 3.43, "operators": [{"name": "Air France"}, {"name": "CSA"}]}, {"destination": {"icao": "LFBZ", "iata": "BIQ", "name": "Biarritz-Anglet-Bayonne, Biarritz/Anglet/Bayonne", "shortName": "Biarritz-Anglet-Bayonne", "municipalityName": "Biarritz/Anglet/Bayonne", "location": {"lat": 43.4684, "lon": -1.523319}, "countryCode": "FR"}, "averageDailyFlights": 3.29, "operators": [{"name": "Air France"}, {"name": "easyJet"}]}, {"destination": {"icao": "GMMX", "iata": "RAK", "name": "Menara, Marrakech", "shortName": "Menara", "municipalityName": "Marrakech", "location": {"lat": 31.6069, "lon": -8.036299}, "countryCode": "MA"}, "averageDailyFlights": 3.25, "operators": [{"name": "Air France"}, {"name": "easyJet"}, {"name": "Royal Air Maroc"}]}, {"destination": {"icao": "LFRB", "iata": "BES", "name": "Brest Bretagne, Brest/Guipavas", "shortName": "Brest Bretagne", "municipalityName": "Brest/Guipavas", "location": {"lat": 48.4479, "lon": -4.41854}, "countryCode": "FR"}, "averageDailyFlights": 3.0, "operators": [{"name": "Air France"}]}, {"destination": {"icao": "LFBP", "iata": "PUF", "name": "Pau Pyr\u00e9n\u00e9es, Pau/Pyr\u00e9n\u00e9es (Uzein)", "shortName": "Pau Pyr\u00e9n\u00e9es", "municipalityName": "Pau/Pyr\u00e9n\u00e9es (Uzein)", "location": {"lat": 43.38, "lon": -0.41861}, "countryCode": "FR"}, "averageDailyFlights": 3.0, "operators": [{"name": "Air France"}]}, {"destination": {"icao": "SBGR", "iata": "GRU", "name": "Guarulhos - Governador Andr\u00e9 Franco Montoro, S\u00e3o Paulo", "shortName": "Guarulhos - Governador Andr\u00e9 Franco Montoro", "municipalityName": "S\u00e3o Paulo", "location": {"lat": -23.435556, "lon": -46.473057}, "countryCode": "BR"}, "averageDailyFlights": 3.0, "operators": [{"name": "LATAM"}, {"name": "Air France"}]}, {"destination": {"icao": "OLBA", "iata": "BEY", "name": "Beirut Rafic Hariri, Beirut", "shortName": "Rafic Hariri", "municipalityName": "Beirut", "location": {"lat": 33.8209, "lon": 35.4884}, "countryCode": "LB"}, "averageDailyFlights": 2.86, "operators": [{"name": "Air France"}, {"name": "Middle East"}]}, {"destination": {"icao": "EGBB", "iata": "BHX", "name": "Birmingham, Birmingham", "municipalityName": "Birmingham", "location": {"lat": 52.4539, "lon": -1.748029}, "countryCode": "GB"}, "averageDailyFlights": 2.86, "operators": [{"name": "Air France"}]}, {"destination": {"icao": "KMIA", "iata": "MIA", "name": "Miami, Miami", "municipalityName": "Miami", "location": {"lat": 25.7932, "lon": -80.2906}, "countryCode": "US"}, "averageDailyFlights": 2.86, "operators": [{"name": "Air France"}, {"name": "American"}]}, {"destination": {"icao": "LIRN", "iata": "NAP", "name": "Naples, N\u00e1poli", "shortName": "Naples", "municipalityName": "N\u00e1poli", "location": {"lat": 40.886, "lon": 14.2908}, "countryCode": "IT"}, "averageDailyFlights": 2.86, "operators": [{"name": "Air France"}, {"name": "easyJet"}]}, {"destination": {"icao": "LEBB", "iata": "BIO", "name": "Bilbao, Bilbao", "municipalityName": "Bilbao", "location": {"lat": 43.3011, "lon": -2.910609}, "countryCode": "ES"}, "averageDailyFlights": 2.71, "operators": [{"name": "Air France"}, {"name": "Vueling"}]}, {"destination": {"icao": "LIPE", "iata": "BLQ", "name": "Bologna Guglielmo Marconi, Bologna", "shortName": "Guglielmo Marconi", "municipalityName": "Bologna", "location": {"lat": 44.5354, "lon": 11.2887}, "countryCode": "IT"}, "averageDailyFlights": 2.71, "operators": [{"name": "Air France"}]}, {"destination": {"icao": "LFLC", "iata": "CFE", "name": "Clermont-Ferrand Auvergne, Clermont-Ferrand/Auvergne", "shortName": "Clermont-Ferrand Auvergne", "municipalityName": "Clermont-Ferrand/Auvergne", "location": {"lat": 45.7867, "lon": 3.169169}, "countryCode": "FR"}, "averageDailyFlights": 2.71, "operators": [{"name": "Air France"}]}, {"destination": {"icao": "EDDV", "iata": "HAJ", "name": "Hannover, Hanover", "shortName": "Hannover", "municipalityName": "Hanover", "location": {"lat": 52.4611, "lon": 9.685079}, "countryCode": "DE"}, "averageDailyFlights": 2.71, "operators": [{"name": "ABR"}, {"name": "Air France"}]}, {"destination": {"icao": "BIKF", "iata": "KEF", "name": "Keflavik, Reykjavik", "shortName": "Keflavik", "municipalityName": "Reykjavik", "location": {"lat": 63.985, "lon": -22.6056}, "countryCode": "IS"}, "averageDailyFlights": 2.71, "operators": [{"name": "FPY"}, {"name": "Ghodawat Enterprises"}, {"name": "Icelandair"}]}, {"destination": {"icao": "WSSS", "iata": "SIN", "name": "Singapore Changi, Singapore", "shortName": "Changi", "municipalityName": "Singapore", "location": {"lat": 1.35019, "lon": 103.994}, "countryCode": "SG"}, "averageDailyFlights": 2.71, "operators": [{"name": "Air France"}, {"name": "Singapore"}]}, {"destination": {"icao": "LIMF", "iata": "TRN", "name": "Turin, Torino", "shortName": "Turin", "municipalityName": "Torino", "location": {"lat": 45.2008, "lon": 7.64963}, "countryCode": "IT"}, "averageDailyFlights": 2.71, "operators": [{"name": "Air France"}]}, {"destination": {"icao": "MMMX", "iata": "MEX", "name": "Licenciado Benito Juarez, Mexico City", "shortName": "Licenciado Benito Juarez", "municipalityName": "Mexico City", "location": {"lat": 19.4363, "lon": -99.0721}, "countryCode": "MX"}, "averageDailyFlights": 2.58, "operators": [{"name": "Aeromexico"}, {"name": "Air France"}]}, {"destination": {"icao": "LHBP", "iata": "BUD", "name": "Budapest Ferenc Liszt, Budapest", "shortName": "Ferenc Liszt", "municipalityName": "Budapest", "location": {"lat": 47.4369, "lon": 19.255598}, "countryCode": "HU"}, "averageDailyFlights": 2.57, "operators": [{"name": "Air France"}, {"name": "ASL Airlines France"}]}, {"destination": {"icao": "EDDN", "iata": "NUE", "name": "Nuremberg, Nuremberg", "municipalityName": "Nuremberg", "location": {"lat": 49.4987, "lon": 11.0669}, "countryCode": "DE"}, "averageDailyFlights": 2.57, "operators": [{"name": "Air France"}, {"name": "ASL Airlines Belgium"}]}, {"destination": {"icao": "HECA", "iata": "CAI", "name": "Cairo, Cairo", "municipalityName": "Cairo", "location": {"lat": 30.1219, "lon": 31.4056}, "countryCode": "EG"}, "averageDailyFlights": 2.43, "operators": [{"name": "Air France"}, {"name": "EgyptAir"}]}, {"destination": {"icao": "VIDP", "iata": "DEL", "name": "Indira Gandhi, New Delhi", "shortName": "Indira Gandhi", "municipalityName": "New Delhi", "location": {"lat": 28.5665, "lon": 77.1031}, "countryCode": "IN"}, "averageDailyFlights": 2.43, "operators": [{"name": "Air France"}, {"name": "Air India"}, {"name": "Vistara"}]}, {"destination": {"icao": "ESGG", "iata": "GOT", "name": "Gothenburg-Landvetter, Goteborg", "shortName": "Gothenburg-Landvetter", "municipalityName": "Goteborg", "location": {"lat": 57.6628, "lon": 12.2798}, "countryCode": "SE"}, "averageDailyFlights": 2.43, "operators": [{"name": "Air France"}, {"name": "ASL Airlines France"}]}, {"destination": {"icao": "ELLX", "iata": "LUX", "name": "Luxembourg-Findel, Luxembourg", "shortName": "Findel", "municipalityName": "Luxembourg", "location": {"lat": 49.6266, "lon": 6.21152}, "countryCode": "LU"}, "averageDailyFlights": 2.43, "operators": [{"name": "Luxair"}]}, {"destination": {"icao": "LPPR", "iata": "OPO", "name": "Francisco de S\u00e1 Carneiro, Porto", "shortName": "Francisco de S\u00e1 Carneiro", "municipalityName": "Porto", "location": {"lat": 41.2481, "lon": -8.681389}, "countryCode": "PT"}, "averageDailyFlights": 2.43, "operators": [{"name": "Air France"}, {"name": "easyJet"}, {"name": "HFM"}]}, {"destination": {"icao": "GMME", "iata": "RBA", "name": "Rabat-Sal\u00e9, Rabat", "shortName": "Sal\u00e9", "municipalityName": "Rabat", "location": {"lat": 34.0515, "lon": -6.75152}, "countryCode": "MA"}, "averageDailyFlights": 2.43, "operators": [{"name": "Air France"}]}, {"destination": {"icao": "RKSI", "iata": "ICN", "name": "Incheon, Seoul", "shortName": "Incheon", "municipalityName": "Seoul", "location": {"lat": 37.4691, "lon": 126.451}, "countryCode": "KR"}, "averageDailyFlights": 2.36, "operators": [{"name": "Air France"}, {"name": "Asiana"}, {"name": "Korean Air"}]}, {"destination": {"icao": "EGGW", "iata": "LTN", "name": "London Luton, London", "shortName": "Luton", "municipalityName": "London", "location": {"lat": 51.8747, "lon": -0.368333}, "countryCode": "GB"}, "averageDailyFlights": 2.29, "operators": [{"name": "easyJet"}]}, {"destination": {"icao": "FIMP", "iata": "MRU", "name": "Sir Seewoosagur Ramgoolam, Port Louis", "shortName": "Sir Seewoosagur Ramgoolam", "municipalityName": "Port Louis", "location": {"lat": -20.4302, "lon": 57.6836}, "countryCode": "MU"}, "averageDailyFlights": 2.29, "operators": [{"name": "Air France"}, {"name": "Air Mauritius"}]}, {"destination": {"icao": "LEZL", "iata": "SVQ", "name": "Sevilla, Seville", "shortName": "Sevilla", "municipalityName": "Seville", "location": {"lat": 37.418, "lon": -5.893109}, "countryCode": "ES"}, "averageDailyFlights": 2.29, "operators": [{"name": "Air France"}, {"name": "Vueling"}]}, {"destination": {"icao": "KLAX", "iata": "LAX", "name": "Los Angeles, Los Angeles", "municipalityName": "Los Angeles", "location": {"lat": 33.9425, "lon": -118.408}, "countryCode": "US"}, "averageDailyFlights": 2.21, "operators": [{"name": "Air France"}, {"name": "Air Tahiti Nui"}]}, {"destination": {"icao": "FMEE", "iata": "RUN", "name": "Roland Garros, St Denis", "shortName": "Roland Garros", "municipalityName": "St Denis", "location": {"lat": -20.8871, "lon": 55.5103}, "countryCode": "RE"}, "averageDailyFlights": 2.18, "operators": [{"name": "Air Austral"}, {"name": "Air France"}, {"name": "Air India"}, {"name": "Vistara"}]}, {"destination": {"icao": "OTHH", "iata": "DOH", "name": "Hamad, Doha", "shortName": "Hamad", "municipalityName": "Doha", "location": {"lat": 25.273056, "lon": 51.608055}, "countryCode": "QA"}, "averageDailyFlights": 2.16, "operators": [{"name": "Qatar Airways"}]}, {"destination": {"icao": "EBBR", "iata": "BRU", "name": "Brussels, Brussels", "municipalityName": "Brussels", "location": {"lat": 50.9014, "lon": 4.484439}, "countryCode": "BE"}, "averageDailyFlights": 2.14, "operators": [{"name": "Brussels"}, {"name": "EAT Leipzig"}]}, {"destination": {"icao": "KDTW", "iata": "DTW", "name": "Detroit Metropolitan Wayne County, Detroit", "shortName": "Metropolitan Wayne County", "municipalityName": "Detroit", "location": {"lat": 42.2124, "lon": -83.3534}, "countryCode": "US"}, "averageDailyFlights": 2.14, "operators": [{"name": "Air France"}, {"name": "Delta Air Lines"}]}, {"destination": {"icao": "DAOO", "iata": "ORN", "name": "Es Senia, Oran", "shortName": "Es Senia", "municipalityName": "Oran", "location": {"lat": 35.6239, "lon": -0.621182}, "countryCode": "DZ"}, "averageDailyFlights": 2.14, "operators": [{"name": "Air Algerie"}, {"name": "Air France"}]}, {"destination": {"icao": "RJTT", "iata": "HND", "name": "Tokyo, Tokyo", "municipalityName": "Tokyo", "location": {"lat": 35.5523, "lon": 139.78}, "countryCode": "JP"}, "averageDailyFlights": 2.14, "operators": [{"name": "Air France"}, {"name": "ANA"}, {"name": "Japan Airlines"}]}, {"destination": {"icao": "LYBE", "iata": "BEG", "name": "Belgrade Nikola Tesla, Belgrade", "shortName": "Nikola Tesla", "municipalityName": "Belgrade", "location": {"lat": 44.8184, "lon": 20.3091}, "countryCode": "RS"}, "averageDailyFlights": 2.0, "operators": [{"name": "Air Serbia"}]}, {"destination": {"icao": "EKBI", "iata": "BLL", "name": "Billund, Billund", "municipalityName": "Billund", "location": {"lat": 55.7403, "lon": 9.15178}, "countryCode": "DK"}, "averageDailyFlights": 2.0, "operators": [{"name": "Air France"}]}, {"destination": {"icao": "KORD", "iata": "ORD", "name": "Chicago O'Hare, Chicago", "shortName": "O'Hare", "municipalityName": "Chicago", "location": {"lat": 41.9786, "lon": -87.9048}, "countryCode": "US"}, "averageDailyFlights": 2.0, "operators": [{"name": "Air France"}, {"name": "United"}]}, {"destination": {"icao": "GOBD", "iata": "DSS", "name": "Blaise Diagne, Dakar", "shortName": "Blaise Diagne", "municipalityName": "Dakar", "location": {"lat": 14.671111, "lon": -17.066944}, "countryCode": "SN"}, "averageDailyFlights": 2.0, "operators": [{"name": "Air France"}, {"name": "Air Senegal"}]}, {"destination": {"icao": "KIAD", "iata": "IAD", "name": "Washington Dulles, District of Columbia", "shortName": "Washington Dulles", "municipalityName": "District of Columbia", "location": {"lat": 38.9445, "lon": -77.4558}, "countryCode": "US"}, "averageDailyFlights": 2.0, "operators": [{"name": "Air France"}, {"name": "United"}]}, {"destination": {"icao": "LEMG", "iata": "AGP", "name": "M\u00e1laga, M\u00e1laga", "municipalityName": "M\u00e1laga", "location": {"lat": 36.6749, "lon": -4.49911}, "countryCode": "ES"}, "averageDailyFlights": 2.0, "operators": [{"name": "Air France"}]}, {"destination": {"icao": "KMSP", "iata": "MSP", "name": "Minneapolis-St Paul /Wold-Chamberlain, Minneapolis", "shortName": "St Paul /Wold-Chamberlain", "municipalityName": "Minneapolis", "location": {"lat": 44.882, "lon": -93.2218}, "countryCode": "US"}, "averageDailyFlights": 2.0, "operators": [{"name": "Delta Air Lines"}]}, {"destination": {"icao": "KSFO", "iata": "SFO", "name": "San Francisco, San Francisco", "municipalityName": "San Francisco", "location": {"lat": 37.619, "lon": -122.375}, "countryCode": "US"}, "averageDailyFlights": 2.0, "operators": [{"name": "Air France"}, {"name": "United"}]}, {"destination": {"icao": "EDDS", "iata": "STR", "name": "Stuttgart, Stuttgart", "municipalityName": "Stuttgart", "location": {"lat": 48.6899, "lon": 9.22196}, "countryCode": "DE"}, "averageDailyFlights": 2.0, "operators": [{"name": "Air France"}]}, {"destination": {"icao": "LDZA", "iata": "ZAG", "name": "Zagreb, Zagreb", "municipalityName": "Zagreb", "location": {"lat": 45.7429, "lon": 16.068798}, "countryCode": "HR"}, "averageDailyFlights": 2.0, "operators": [{"name": "Air France"}, {"name": "Croatia"}]}, {"destination": {"icao": "LFSB", "iata": "BSL", "name": "Euro Basel-Mulhouse-Freiburg, B\u00e2le/Mulhouse", "shortName": "Euro Basel-Mulhouse-Freiburg", "municipalityName": "B\u00e2le/Mulhouse", "location": {"lat": 47.5896, "lon": 7.52991}, "countryCode": "FR"}, "averageDailyFlights": 1.86, "operators": [{"name": "Air France"}]}, {"destination": {"icao": "EGGD", "iata": "BRS", "name": "Bristol, Bristol", "municipalityName": "Bristol", "location": {"lat": 51.3827, "lon": -2.719089}, "countryCode": "GB"}, "averageDailyFlights": 1.86, "operators": [{"name": "easyJet"}]}, {"destination": {"icao": "CYYZ", "iata": "YYZ", "name": "Lester B. Pearson, Toronto", "shortName": "Lester B. Pearson", "municipalityName": "Toronto", "location": {"lat": 43.6772, "lon": -79.6306}, "countryCode": "CA"}, "averageDailyFlights": 1.86, "operators": [{"name": "Air Canada"}, {"name": "Air France"}]}, {"destination": {"icao": "LEVC", "iata": "VLC", "name": "Valencia, Valencia", "municipalityName": "Valencia", "location": {"lat": 39.4893, "lon": -0.481624}, "countryCode": "ES"}, "averageDailyFlights": 1.86, "operators": [{"name": "Air France"}]}, {"destination": {"icao": "DIAP", "iata": "ABJ", "name": "Port Bouet, Abidjan", "shortName": "Port Bouet", "municipalityName": "Abidjan", "location": {"lat": 5.26139, "lon": -3.92629}, "countryCode": "CI"}, "averageDailyFlights": 1.71, "operators": [{"name": "Air France"}]}, {"destination": {"icao": "LEAL", "iata": "ALC", "name": "Alicante, Alicante", "municipalityName": "Alicante", "location": {"lat": 38.2822, "lon": -0.558156}, "countryCode": "ES"}, "averageDailyFlights": 1.71, "operators": [{"name": "Vueling"}]}, {"destination": {"icao": "VTBS", "iata": "BKK", "name": "Suvarnabhumi, Bangkok", "shortName": "Suvarnabhumi", "municipalityName": "Bangkok", "location": {"lat": 13.681099, "lon": 100.747}, "countryCode": "TH"}, "averageDailyFlights": 1.71, "operators": [{"name": "Air France"}, {"name": "Thai Airways International"}]}, {"destination": {"icao": "KBOS", "iata": "BOS", "name": "General Edward Lawrence Logan, Boston", "shortName": "General Edward Lawrence Logan", "municipalityName": "Boston", "location": {"lat": 42.3643, "lon": -71.0052}, "countryCode": "US"}, "averageDailyFlights": 1.71, "operators": [{"name": "Air France"}, {"name": "Delta Air Lines"}]}, {"destination": {"icao": "VHHH", "iata": "HKG", "name": "Chek Lap Kok, Hong Kong", "shortName": "Chek Lap Kok", "municipalityName": "Hong Kong", "location": {"lat": 22.3089, "lon": 113.915}, "countryCode": "HK"}, "averageDailyFlights": 1.57, "operators": [{"name": "Air France"}, {"name": "Cathay Pacific"}, {"name": "CMA"}]}, {"destination": {"icao": "EPKK", "iata": "KRK", "name": "John Paul II   Krak\u00f3w-Balice, Krak\u00f3w", "shortName": "John Paul II   -Balice", "municipalityName": "Krak\u00f3w", "location": {"lat": 50.0777, "lon": 19.7848}, "countryCode": "PL"}, "averageDailyFlights": 1.57, "operators": [{"name": "easyJet"}]}, {"destination": {"icao": "EDDP", "iata": "LEJ", "name": "Leipzig Halle, Leipzig", "shortName": "Halle", "municipalityName": "Leipzig", "location": {"lat": 51.4324, "lon": 12.2416}, "countryCode": "DE"}, "averageDailyFlights": 1.57, "operators": [{"name": "ABR"}, {"name": "EAT Leipzig"}]}, {"destination": {"icao": "HKJK", "iata": "NBO", "name": "Jomo Kenyatta, Nairobi", "shortName": "Jomo Kenyatta", "municipalityName": "Nairobi", "location": {"lat": -1.319239, "lon": 36.9278}, "countryCode": "KE"}, "averageDailyFlights": 1.57, "operators": [{"name": "Air France"}, {"name": "Kenya Airways"}]}, {"destination": {"icao": "EGNT", "iata": "NCL", "name": "Newcastle, Newcastle upon Tyne", "shortName": "Newcastle", "municipalityName": "Newcastle upon Tyne", "location": {"lat": 55.0375, "lon": -1.691669}, "countryCode": "GB"}, "averageDailyFlights": 1.57, "operators": [{"name": "Air France"}]}, {"destination": {"icao": "LFRN", "iata": "RNS", "name": "Rennes-Saint-Jacques, Rennes/Saint-Jacques", "shortName": "Rennes-Saint-Jacques", "municipalityName": "Rennes/Saint-Jacques", "location": {"lat": 48.0695, "lon": -1.734789}, "countryCode": "FR"}, "averageDailyFlights": 1.57, "operators": [{"name": "Air France"}]}, {"destination": {"icao": "LJLJ", "iata": "LJU", "name": "Ljubljana Jo\u017ee Pu\u010dnik, Ljubljana", "shortName": "Jo\u017ee Pu\u010dnik", "municipalityName": "Ljubljana", "location": {"lat": 46.2237, "lon": 14.457599}, "countryCode": "SI"}, "averageDailyFlights": 1.43, "operators": [{"name": "Air France"}]}, {"destination": {"icao": "KSEA", "iata": "SEA", "name": "Seattle Tacoma, Seattle", "shortName": "Tacoma", "municipalityName": "Seattle", "location": {"lat": 47.449, "lon": -122.309}, "countryCode": "US"}, "averageDailyFlights": 1.43, "operators": [{"name": "Air France"}, {"name": "Delta Air Lines"}]}, {"destination": {"icao": "TNCM", "iata": "SXM", "name": "Princess Juliana, Saint Martin", "shortName": "Princess Juliana", "municipalityName": "Saint Martin", "location": {"lat": 18.041, "lon": -63.1089}, "countryCode": "SX"}, "averageDailyFlights": 1.43, "operators": [{"name": "Air France"}]}, {"destination": {"icao": "LTFJ", "iata": "SAW", "name": "Sabiha G\u00f6k\u00e7en, Istanbul", "shortName": "Sabiha G\u00f6k\u00e7en", "municipalityName": "Istanbul", "location": {"lat": 40.8986, "lon": 29.3092}, "countryCode": "TR"}, "averageDailyFlights": 1.31, "operators": [{"name": "Turkish"}]}, {"destination": {"icao": "KDFW", "iata": "DFW", "name": "Dallas Fort Worth, Dallas-Fort Worth", "shortName": "Dallas Fort Worth", "municipalityName": "Dallas-Fort Worth", "location": {"lat": 32.8968, "lon": -97.038}, "countryCode": "US"}, "averageDailyFlights": 1.29, "operators": [{"name": "Air France"}, {"name": "American"}, {"name": "American Airlines"}]}, {"destination": {"icao": "OJAI", "iata": "AMM", "name": "Queen Alia, Amman", "shortName": "Queen Alia", "municipalityName": "Amman", "location": {"lat": 31.7226, "lon": 35.9932}, "countryCode": "JO"}, "averageDailyFlights": 1.14, "operators": [{"name": "Royal Jordanian"}]}, {"destination": {"icao": "EGPF", "iata": "GLA", "name": "Glasgow, Glasgow", "municipalityName": "Glasgow", "location": {"lat": 55.8719, "lon": -4.43306}, "countryCode": "GB"}, "averageDailyFlights": 1.14, "operators": [{"name": "easyJet"}]}, {"destination": {"icao": "EVRA", "iata": "RIX", "localCode": "\u0420\u0418\u0425", "name": "Riga, Riga", "municipalityName": "Riga", "location": {"lat": 56.9236, "lon": 23.9711}, "countryCode": "LV"}, "averageDailyFlights": 1.14, "operators": [{"name": "Air Baltic"}]}, {"destination": {"icao": "OMAA", "iata": "AUH", "name": "Abu Dhabi, Abu Dhabi Island and Internal Islands City", "shortName": "Abu Dhabi", "municipalityName": "Abu Dhabi Island and Internal Islands City", "location": {"lat": 24.433, "lon": 54.6511}, "countryCode": "AE"}, "averageDailyFlights": 1.0, "operators": [{"name": "Etihad Airways"}]}, {"destination": {"icao": "HAAB", "iata": "ADD", "name": "Addis Ababa Bole, Addis Ababa", "shortName": "Bole", "municipalityName": "Addis Ababa", "location": {"lat": 8.97789, "lon": 38.7993}, "countryCode": "ET"}, "averageDailyFlights": 1.0, "operators": [{"name": "Ethiopian"}]}, {"destination": {"icao": "VOBL", "iata": "BLR", "name": "Bengaluru, Bangalore", "shortName": "Bengaluru", "municipalityName": "Bangalore", "location": {"lat": 13.197899, "lon": 77.7063}, "countryCode": "IN"}, "averageDailyFlights": 1.0, "operators": [{"name": "Air France"}]}, {"destination": {"icao": "DAAE", "iata": "BJA", "name": "Soummam, Bij\u0101ya", "shortName": "Soummam", "municipalityName": "Bij\u0101ya", "location": {"lat": 36.712, "lon": 5.06992}, "countryCode": "DZ"}, "averageDailyFlights": 1.0, "operators": [{"name": "Air Algerie"}, {"name": "ASL  France"}]}, {"destination": {"icao": "SKBO", "iata": "BOG", "name": "El Dorado, Bogot\u00e1", "shortName": "El Dorado", "municipalityName": "Bogot\u00e1", "location": {"lat": 4.70159, "lon": -74.1469}, "countryCode": "CO"}, "averageDailyFlights": 1.0, "operators": [{"name": "Air France"}]}, {"destination": {"icao": "SAEZ", "iata": "EZE", "name": "Ministro Pistarini, Buenos Aires", "shortName": "Ministro Pistarini", "municipalityName": "Buenos Aires", "location": {"lat": -34.8222, "lon": -58.5358}, "countryCode": "AR"}, "averageDailyFlights": 1.0, "operators": [{"name": "Air France"}]}, {"destination": {"icao": "MMUN", "iata": "CUN", "name": "Canc\u00fan, Canc\u00fan", "municipalityName": "Canc\u00fan", "location": {"lat": 21.0365, "lon": -86.8771}, "countryCode": "MX"}, "averageDailyFlights": 1.0, "operators": [{"name": "Air France"}]}, {"destination": {"icao": "EDDK", "iata": "CGN", "name": "Cologne Bonn, Cologne", "shortName": "Bonn", "municipalityName": "Cologne", "location": {"lat": 50.8659, "lon": 7.142739}, "countryCode": "DE"}, "averageDailyFlights": 1.0, "operators": [{"name": "ASL Airlines Belgium"}, {"name": "EAT Leipzig"}, {"name": "Star Air A/S"}]}, {"destination": {"icao": "GABS", "iata": "BKO", "name": "Senou, Senou", "municipalityName": "Senou", "location": {"lat": 12.533499, "lon": -7.94994}, "countryCode": "ML"}, "averageDailyFlights": 1.0, "operators": [{"name": "Air France"}]}, {"destination": {"icao": "TFFF", "iata": "FDF", "name": "Martinique Aim\u00e9 C\u00e9saire, Fort-de-France", "shortName": "Martinique Aim\u00e9 C\u00e9saire", "municipalityName": "Fort-de-France", "location": {"lat": 14.590999, "lon": -61.0032}, "countryCode": "MQ"}, "averageDailyFlights": 1.0, "operators": [{"name": "Air France"}]}, {"destination": {"icao": "OEJN", "iata": "JED", "name": "King Abdulaziz, Jeddah", "shortName": "King Abdulaziz", "municipalityName": "Jeddah", "location": {"lat": 21.6796, "lon": 39.1565}, "countryCode": "SA"}, "averageDailyFlights": 1.0, "operators": [{"name": "Saudia"}]}, {"destination": {"icao": "FAOR", "iata": "JNB", "name": "OR Tambo, Jo'anna", "shortName": "OR Tambo", "municipalityName": "Jo'anna", "location": {"lat": -26.1392, "lon": 28.246}, "countryCode": "ZA"}, "averageDailyFlights": 1.0, "operators": [{"name": "Air France"}]}, {"destination": {"icao": "OKBK", "iata": "KWI", "name": "Kuwait, Kuwait City", "shortName": "Kuwait", "municipalityName": "Kuwait City", "location": {"lat": 29.2266, "lon": 47.9689}, "countryCode": "KW"}, "averageDailyFlights": 1.0, "operators": [{"name": "Kuwait Airways"}]}, {"destination": {"icao": "SPJC", "iata": "LIM", "name": "Jorge Ch\u00e1vez, Lima", "shortName": "Jorge Ch\u00e1vez", "municipalityName": "Lima", "location": {"lat": -12.0219, "lon": -77.1143}, "countryCode": "PE"}, "averageDailyFlights": 1.0, "operators": [{"name": "Air France"}]}, {"destination": {"icao": "OBBI", "iata": "BAH", "name": "Bahrain, Manama", "shortName": "Bahrain", "municipalityName": "Manama", "location": {"lat": 26.2708, "lon": 50.6336}, "countryCode": "BH"}, "averageDailyFlights": 1.0, "operators": [{"name": "Gulf Air"}]}, {"destination": {"icao": "VABB", "iata": "BOM", "name": "Chhatrapati Shivaji, Mumbai", "shortName": "Chhatrapati Shivaji", "municipalityName": "Mumbai", "location": {"lat": 19.0887, "lon": 72.8679}, "countryCode": "IN"}, "averageDailyFlights": 1.0, "operators": [{"name": "Air France"}]}, {"destination": {"icao": "KEWR", "iata": "EWR", "name": "Newark Liberty, Newark", "shortName": "Liberty", "municipalityName": "Newark", "location": {"lat": 40.6925, "lon": -74.1687}, "countryCode": "US"}, "averageDailyFlights": 1.0, "operators": [{"name": "United"}]}, {"destination": {"icao": "TFFR", "iata": "PTP", "name": "Pointe-\u00e0-Pitre Le Raizet, Pointe-\u00e0-Pitre Le Raizet", "municipalityName": "Pointe-\u00e0-Pitre Le Raizet", "location": {"lat": 16.2653, "lon": -61.5318}, "countryCode": "GP"}, "averageDailyFlights": 1.0, "operators": [{"name": "Air France"}]}, {"destination": {"icao": "SBGL", "iata": "GIG", "name": "RIOgale\u00e3o \u2013 Tom Jobim, Rio de Janeiro", "shortName": "RIOgale\u00e3o \u2013 Tom Jobim", "municipalityName": "Rio de Janeiro", "location": {"lat": -22.81, "lon": -43.250557}, "countryCode": "BR"}, "averageDailyFlights": 1.0, "operators": [{"name": "Air France"}]}, {"destination": {"icao": "OERK", "iata": "RUH", "name": "King Khaled, Riyadh", "shortName": "King Khaled", "municipalityName": "Riyadh", "location": {"lat": 24.9576, "lon": 46.6988}, "countryCode": "SA"}, "averageDailyFlights": 1.0, "operators": [{"name": "Saudia"}]}, {"destination": {"icao": "KSLC", "iata": "SLC", "name": "Salt Lake City, Salt Lake City", "municipalityName": "Salt Lake City", "location": {"lat": 40.7884, "lon": -111.978}, "countryCode": "US"}, "averageDailyFlights": 1.0, "operators": [{"name": "Delta Air Lines"}]}, {"destination": {"icao": "SCEL", "iata": "SCL", "name": "Comodoro Arturo Merino Ben\u00edtez, Santiago", "shortName": "Comodoro Arturo Merino Ben\u00edtez", "municipalityName": "Santiago", "location": {"lat": -33.393, "lon": -70.7858}, "countryCode": "CL"}, "averageDailyFlights": 1.0, "operators": [{"name": "Air France"}]}, {"destination": {"icao": "RCTP", "iata": "TPE", "name": "Taiwan Taoyuan, Taipei", "shortName": "Taiwan Taoyuan", "municipalityName": "Taipei", "location": {"lat": 25.0777, "lon": 121.233}, "countryCode": "TW"}, "averageDailyFlights": 1.0, "operators": [{"name": "EVA Air"}]}, {"destination": {"icao": "MDPC", "iata": "PUJ", "name": "Punta Cana, Punta Cana", "municipalityName": "Punta Cana", "location": {"lat": 18.567398, "lon": -68.3634}, "countryCode": "DO"}, "averageDailyFlights": 0.93, "operators": [{"name": "Air France"}]}, {"destination": {"icao": "VVNB", "iata": "HAN", "name": "Noi Bai, Hanoi", "shortName": "Noi Bai", "municipalityName": "Hanoi", "location": {"lat": 21.2212, "lon": 105.807}, "countryCode": "VN"}, "averageDailyFlights": 0.88, "operators": [{"name": "Vietnam"}]}, {"destination": {"icao": "EGAA", "iata": "BFS", "name": "Belfast, Belfast", "municipalityName": "Belfast", "location": {"lat": 54.6575, "lon": -6.215829}, "countryCode": "GB"}, "averageDailyFlights": 0.86, "operators": [{"name": "easyJet"}]}, {"destination": {"icao": "DBBB", "iata": "COO", "name": "Cadjehoun, Cotonou", "shortName": "Cadjehoun", "municipalityName": "Cotonou", "location": {"lat": 6.35723, "lon": 2.38435}, "countryCode": "BJ"}, "averageDailyFlights": 0.86, "operators": [{"name": "Air France"}]}, {"destination": {"icao": "DTTJ", "iata": "DJE", "name": "Djerba Zarzis, Houmt El Souk", "shortName": "Djerba Zarzis", "municipalityName": "Houmt El Souk", "location": {"lat": 33.875, "lon": 10.7755}, "countryCode": "TN"}, "averageDailyFlights": 0.86, "operators": [{"name": "Nouvelair Tunisie"}]}, {"destination": {"icao": "DNMM", "iata": "LOS", "name": "Murtala Muhammed, Lagos", "shortName": "Murtala Muhammed", "municipalityName": "Lagos", "location": {"lat": 6.57737, "lon": 3.32116}, "countryCode": "NG"}, "averageDailyFlights": 0.86, "operators": [{"name": "Air France"}]}, {"destination": {"icao": "FOOL", "iata": "LBV", "name": "Libreville Leon M'ba, Libreville", "shortName": "Leon M'ba", "municipalityName": "Libreville", "location": {"lat": 0.4586, "lon": 9.41228}, "countryCode": "GA"}, "averageDailyFlights": 0.86, "operators": [{"name": "Air France"}]}, {"destination": {"icao": "EGGP", "iata": "LPL", "name": "Liverpool John Lennon, Liverpool", "shortName": "John Lennon", "municipalityName": "Liverpool", "location": {"lat": 53.3336, "lon": -2.84972}, "countryCode": "GB"}, "averageDailyFlights": 0.86, "operators": [{"name": "easyJet"}]}, {"destination": {"icao": "FKKD", "iata": "DLA", "name": "Douala, Douala", "municipalityName": "Douala", "location": {"lat": 4.00608, "lon": 9.719479}, "countryCode": "CM"}, "averageDailyFlights": 0.86, "operators": [{"name": "Air France"}]}, {"destination": {"icao": "LMML", "iata": "MLA", "name": "Malta, Luqa", "shortName": "Malta", "municipalityName": "Luqa", "location": {"lat": 35.8575, "lon": 14.4775}, "countryCode": "MT"}, "averageDailyFlights": 0.86, "operators": [{"name": "Air Malta"}]}, {"destination": {"icao": "DTMB", "iata": "MIR", "name": "Monastir Habib Bourguiba, Monastir", "shortName": "Habib Bourguiba", "municipalityName": "Monastir", "location": {"lat": 35.7581, "lon": 10.754699}, "countryCode": "TN"}, "averageDailyFlights": 0.86, "operators": [{"name": "Nouvelair Tunisie"}, {"name": "Tunisair"}]}, {"destination": {"icao": "MPTO", "iata": "PTY", "name": "Tocumen, Tocumen", "municipalityName": "Tocumen", "location": {"lat": 9.071359, "lon": -79.3835}, "countryCode": "PA"}, "averageDailyFlights": 0.86, "operators": [{"name": "Air France"}]}, {"destination": {"icao": "LIME", "iata": "BGY", "name": "Orio al Serio, Bergamo", "shortName": "Orio al Serio", "municipalityName": "Bergamo", "location": {"lat": 45.6739, "lon": 9.70417}, "countryCode": "IT"}, "averageDailyFlights": 0.71, "operators": [{"name": "easyJet"}]}, {"destination": {"icao": "LPFR", "iata": "FAO", "name": "Faro, Faro", "municipalityName": "Faro", "location": {"lat": 37.0144, "lon": -7.965909}, "countryCode": "PT"}, "averageDailyFlights": 0.71, "operators": [{"name": "easyJet"}]}, {"destination": {"icao": "MUHA", "iata": "HAV", "name": "Jos\u00e9 Mart\u00ed, Havana", "shortName": "Jos\u00e9 Mart\u00ed", "municipalityName": "Havana", "location": {"lat": 22.9892, "lon": -82.4091}, "countryCode": "CU"}, "averageDailyFlights": 0.71, "operators": [{"name": "Air France"}]}, {"destination": {"icao": "KIAH", "iata": "IAH", "name": "George Bush Intercontinental Houston, Houston", "shortName": "George Bush Intercontinental", "municipalityName": "Houston", "location": {"lat": 29.9844, "lon": -95.3414}, "countryCode": "US"}, "averageDailyFlights": 0.71, "operators": [{"name": "Air France"}]}, {"destination": {"icao": "KPHL", "iata": "PHL", "name": "Philadelphia, Philadelphia", "municipalityName": "Philadelphia", "location": {"lat": 39.8719, "lon": -75.2411}, "countryCode": "US"}, "averageDailyFlights": 0.71, "operators": [{"name": "American"}]}, {"destination": {"icao": "MROC", "iata": "SJO", "name": "Juan Santamaria, San Jos\u00e9", "shortName": "Juan Santamaria", "municipalityName": "San Jos\u00e9", "location": {"lat": 9.99386, "lon": -84.2088}, "countryCode": "CR"}, "averageDailyFlights": 0.71, "operators": [{"name": "Air France"}]}, {"destination": {"icao": "LBSF", "iata": "SOF", "name": "Sofia, Sofia", "municipalityName": "Sofia", "location": {"lat": 42.696693, "lon": 23.411436}, "countryCode": "BG"}, "averageDailyFlights": 0.71, "operators": [{"name": "Bulgaria Air"}]}, {"destination": {"name": "Kyiv"}, "averageDailyFlights": 0.71, "operators": [{"name": "UIA"}]}, {"destination": {"icao": "LCLK", "iata": "LCA", "name": "Larnaca, Larnarca", "shortName": "Larnaca", "municipalityName": "Larnarca", "location": {"lat": 34.8751, "lon": 33.6249}, "countryCode": "CY"}, "averageDailyFlights": 0.6, "operators": [{"name": "Cyprus Airways"}, {"name": "easyJet"}, {"name": "CYP"}]}, {"destination": {"icao": "OOMS", "iata": "MCT", "name": "Muscat, Muscat", "municipalityName": "Muscat", "location": {"lat": 23.5933, "lon": 58.2844}, "countryCode": "OM"}, "averageDailyFlights": 0.6, "operators": [{"name": "Oman Air"}]}, {"destination": {"icao": "VVTS", "iata": "SGN", "name": "Tan Son Nhat, Ho Chi Minh City", "shortName": "Tan Son Nhat", "municipalityName": "Ho Chi Minh City", "location": {"lat": 10.818799, "lon": 106.652}, "countryCode": "VN"}, "averageDailyFlights": 0.59, "operators": [{"name": "Air France"}, {"name": "Vietnam"}]}, {"destination": {"icao": "DABB", "iata": "AAE", "name": "Annaba, Annabah", "shortName": "Annaba", "municipalityName": "Annabah", "location": {"lat": 36.8222, "lon": 7.809169}, "countryCode": "DZ"}, "averageDailyFlights": 0.57, "operators": [{"name": "Air Algerie"}, {"name": "ASL  France"}]}, {"destination": {"icao": "FMMI", "iata": "TNR", "name": "Ivato, Antananarivo", "shortName": "Ivato", "municipalityName": "Antananarivo", "location": {"lat": -18.7969, "lon": 47.4788}, "countryCode": "MG"}, "averageDailyFlights": 0.57, "operators": [{"name": "Air France"}, {"name": "Air Madagascar"}]}, {"destination": {"icao": "LICC", "iata": "CTA", "name": "Catania-Fontanarossa, Catania", "shortName": "Fontanarossa", "municipalityName": "Catania", "location": {"lat": 37.4668, "lon": 15.066399}, "countryCode": "IT"}, "averageDailyFlights": 0.57, "operators": [{"name": "easyJet"}]}, {"destination": {"icao": "DABC", "iata": "CZL", "name": "Mohamed Boudiaf, Constantine", "shortName": "Mohamed Boudiaf", "municipalityName": "Constantine", "location": {"lat": 36.276, "lon": 6.620389}, "countryCode": "DZ"}, "averageDailyFlights": 0.57, "operators": [{"name": "Air Algerie"}]}, {"destination": {"icao": "GCLP", "iata": "LPA", "name": "Gran Canaria, Gran Canaria Island", "shortName": "Gran Canaria", "municipalityName": "Gran Canaria Island", "location": {"lat": 27.9319, "lon": -15.386599}, "countryCode": "ES"}, "averageDailyFlights": 0.57, "operators": [{"name": "Vueling"}]}, {"destination": {"icao": "EGNM", "iata": "LBA", "name": "Leeds Bradford, Leeds", "shortName": "Bradford", "municipalityName": "Leeds", "location": {"lat": 53.8659, "lon": -1.66057}, "countryCode": "GB"}, "averageDailyFlights": 0.57, "operators": [{"name": "Jet2"}]}, {"destination": {"icao": "DRRN", "iata": "NIM", "name": "Diori Hamani, Niamey", "shortName": "Diori Hamani", "municipalityName": "Niamey", "location": {"lat": 13.481499, "lon": 2.183609}, "countryCode": "NE"}, "averageDailyFlights": 0.57, "operators": [{"name": "Air France"}]}, {"destination": {"icao": "EDWS", "iata": "NOD", "name": "Norden-Norddeich, Norddeich", "shortName": "Norden", "municipalityName": "Norddeich", "location": {"lat": 53.633057, "lon": 7.190278}, "countryCode": "DE"}, "averageDailyFlights": 0.57, "operators": [{"name": "Star Air A/S"}]}, {"destination": {"icao": "FCBB", "iata": "BZV", "name": "Maya-Maya, Brazzaville", "shortName": "Maya-Maya", "municipalityName": "Brazzaville", "location": {"lat": -4.251699, "lon": 15.253}, "countryCode": "CG"}, "averageDailyFlights": 0.57, "operators": [{"name": "Air France"}]}, {"destination": {"icao": "VRMM", "iata": "MLE", "name": "Mal\u00e9, Mal\u00e9", "municipalityName": "Mal\u00e9", "location": {"lat": 4.19183, "lon": 73.5291}, "countryCode": "MV"}, "averageDailyFlights": 0.57, "operators": [{"name": "Air France"}]}, {"destination": {"icao": "FNLU", "iata": "LAD", "name": "Quatro de Fevereiro, Luanda", "shortName": "Quatro de Fevereiro", "municipalityName": "Luanda", "location": {"lat": -8.858369, "lon": 13.2312}, "countryCode": "AO"}, "averageDailyFlights": 0.57, "operators": [{"name": "Air France"}]}, {"destination": {"icao": "KRDU", "iata": "RDU", "name": "Raleigh Durham, Raleigh/Durham", "shortName": "Raleigh Durham", "municipalityName": "Raleigh/Durham", "location": {"lat": 35.8776, "lon": -78.7875}, "countryCode": "US"}, "averageDailyFlights": 0.57, "operators": [{"name": "Delta Air Lines"}]}, {"destination": {"icao": "UGTB", "iata": "TBS", "name": "Tbilisi, Tbilisi", "municipalityName": "Tbilisi", "location": {"lat": 41.6692, "lon": 44.9547}, "countryCode": "GE"}, "averageDailyFlights": 0.57, "operators": [{"name": "Air France"}, {"name": "Geo Sky"}, {"name": "Georgian Airways"}]}, {"destination": {"icao": "LIPX", "iata": "VRN", "name": "Verona Villafranca, Verona", "shortName": "Villafranca", "municipalityName": "Verona", "location": {"lat": 45.3957, "lon": 10.8885}, "countryCode": "IT"}, "averageDailyFlights": 0.57, "operators": [{"name": "Volotea"}]}, {"destination": {"icao": "ZSPD", "iata": "PVG", "name": "Shanghai Pudong, Shanghai", "shortName": "Pudong", "municipalityName": "Shanghai", "location": {"lat": 31.1434, "lon": 121.805}, "countryCode": "CN"}, "averageDailyFlights": 0.45, "operators": [{"name": "Air France"}, {"name": "China Eastern"}]}, {"destination": {"icao": "FACT", "iata": "CPT", "name": "Cape Town, Cape Town", "municipalityName": "Cape Town", "location": {"lat": -33.9648, "lon": 18.6017}, "countryCode": "ZA"}, "averageDailyFlights": 0.43, "operators": [{"name": "Air France"}]}, {"destination": {"icao": "VOMM", "iata": "MAA", "name": "Chennai, Chennai", "municipalityName": "Chennai", "location": {"lat": 12.990005, "lon": 80.1693}, "countryCode": "IN"}, "averageDailyFlights": 0.43, "operators": [{"name": "Air France"}]}, {"destination": {"icao": "KCVG", "iata": "CVG", "name": "Cincinnati Northern Kentucky, Cincinnati", "shortName": "Northern Kentucky", "municipalityName": "Cincinnati", "location": {"lat": 39.0488, "lon": -84.6678}, "countryCode": "US"}, "averageDailyFlights": 0.43, "operators": [{"name": "Delta Air Lines"}]}, {"destination": {"icao": "VCBI", "iata": "CMB", "name": "Bandaranaike  Colombo, Colombo", "shortName": "Bandaranaike", "municipalityName": "Colombo", "location": {"lat": 7.180759, "lon": 79.8841}, "countryCode": "LK"}, "averageDailyFlights": 0.43, "operators": [{"name": "SriLankan"}]}, {"destination": {"icao": "GUCY", "iata": "CKY", "name": "Conakry, Conakry", "municipalityName": "Conakry", "location": {"lat": 9.57689, "lon": -13.612}, "countryCode": "GN"}, "averageDailyFlights": 0.43, "operators": [{"name": "Air France"}]}, {"destination": {"icao": "FMCZ", "iata": "DZA", "name": "Dzaoudzi Pamandzi, Dzaoudzi", "shortName": "Pamandzi", "municipalityName": "Dzaoudzi", "location": {"lat": -12.804699, "lon": 45.2811}, "countryCode": "YT"}, "averageDailyFlights": 0.43, "operators": [{"name": "Air Austral"}]}, {"destination": {"icao": "SBFZ", "iata": "FOR", "name": "Pinto Martins, Fortaleza", "shortName": "Pinto Martins", "municipalityName": "Fortaleza", "location": {"lat": -3.776279, "lon": -38.5326}, "countryCode": "BR"}, "averageDailyFlights": 0.43, "operators": [{"name": "Air France"}]}, {"destination": {"icao": "GCRR", "iata": "ACE", "name": "Lanzarote, Lanzarote Island", "shortName": "Lanzarote", "municipalityName": "Lanzarote Island", "location": {"lat": 28.9455, "lon": -13.605199}, "countryCode": "ES"}, "averageDailyFlights": 0.43, "operators": [{"name": "easyJet"}]}, {"destination": {"icao": "DXXX", "iata": "LFW", "name": "Lom\u00e9-Tokoin, Lom\u00e9", "shortName": "Tokoin", "municipalityName": "Lom\u00e9", "location": {"lat": 6.165609, "lon": 1.25451}, "countryCode": "TG"}, "averageDailyFlights": 0.43, "operators": [{"name": "Air France"}]}, {"destination": {"icao": "FZAA", "iata": "FIH", "name": "Ndjili, Kinshasa", "shortName": "Ndjili", "municipalityName": "Kinshasa", "location": {"lat": -4.385749, "lon": 15.4446}, "countryCode": "CD"}, "averageDailyFlights": 0.43, "operators": [{"name": "Air France"}]}, {"destination": {"icao": "GFLL", "iata": "FNA", "name": "Lungi, Freetown", "shortName": "Lungi", "municipalityName": "Freetown", "location": {"lat": 8.616439, "lon": -13.1955}, "countryCode": "SL"}, "averageDailyFlights": 0.43, "operators": [{"name": "Air France"}]}, {"destination": {"icao": "HTZA", "iata": "ZNZ", "name": "Abeid Amani Karume, Zanzibar", "shortName": "Abeid Amani Karume", "municipalityName": "Zanzibar", "location": {"lat": -6.22202, "lon": 39.2249}, "countryCode": "TZ"}, "averageDailyFlights": 0.43, "operators": [{"name": "Air France"}]}, {"destination": {"icao": "EETN", "iata": "TLL", "localCode": "TLL", "name": "Lennart Meri Tallinn, Tallinn", "shortName": "Lennart Meri", "municipalityName": "Tallinn", "location": {"lat": 59.4133, "lon": 24.8328}, "countryCode": "EE"}, "averageDailyFlights": 0.43, "operators": [{"name": "Air Baltic"}]}, {"destination": {"icao": "GMTT", "iata": "TNG", "name": "Ibn Batouta, Tangier", "shortName": "Ibn Batouta", "municipalityName": "Tangier", "location": {"lat": 35.7269, "lon": -5.91689}, "countryCode": "MA"}, "averageDailyFlights": 0.43, "operators": [{"name": "Air Arabia Maroc"}]}, {"destination": {"icao": "GCTS", "iata": "TFS", "name": "Tenerife South, Tenerife Island", "shortName": "Tenerife South", "municipalityName": "Tenerife Island", "location": {"lat": 28.0445, "lon": -16.5725}, "countryCode": "ES"}, "averageDailyFlights": 0.43, "operators": [{"name": "easyJet"}]}, {"destination": {"icao": "RJAA", "iata": "NRT", "name": "Narita, Tokyo", "shortName": "Narita", "municipalityName": "Tokyo", "location": {"lat": 35.7647, "lon": 140.386}, "countryCode": "JP"}, "averageDailyFlights": 0.43, "operators": [{"name": "Air France"}]}, {"destination": {"icao": "CYVR", "iata": "YVR", "name": "Vancouver, Vancouver", "municipalityName": "Vancouver", "location": {"lat": 49.1939, "lon": -123.184}, "countryCode": "CA"}, "averageDailyFlights": 0.43, "operators": [{"name": "Air France"}]}, {"destination": {"icao": "EYVI", "iata": "VNO", "localCode": "\u0412\u0418\u041b", "name": "Vilnius, Vilnius", "municipalityName": "Vilnius", "location": {"lat": 54.6341, "lon": 25.2858}, "countryCode": "LT"}, "averageDailyFlights": 0.43, "operators": [{"name": "Air Baltic"}]}, {"destination": {"icao": "FKYS", "iata": "NSI", "name": "Yaound\u00e9 Nsimalen, Yaound\u00e9", "shortName": "Nsimalen", "municipalityName": "Yaound\u00e9", "location": {"lat": 3.722559, "lon": 11.553299}, "countryCode": "CM"}, "averageDailyFlights": 0.43, "operators": [{"name": "Air France"}]}, {"destination": {"icao": "UDYZ", "iata": "EVN", "localCode": "\u0417\u0412\u0420", "name": "Zvartnots, Yerevan", "shortName": "Zvartnots", "municipalityName": "Yerevan", "location": {"lat": 40.1473, "lon": 44.3959}, "countryCode": "AM"}, "averageDailyFlights": 0.43, "operators": [{"name": "Air France"}, {"name": "Pacific Airways"}]}, {"destination": {"name": "Tuluza"}, "averageDailyFlights": 0.43, "operators": [{"name": "Air France"}]}, {"destination": {"icao": "RJBB", "iata": "KIX", "name": "Kansai, Osaka", "shortName": "Kansai", "municipalityName": "Osaka", "location": {"lat": 34.4273, "lon": 135.244}, "countryCode": "JP"}, "averageDailyFlights": 0.31, "operators": [{"name": "Air France"}]}, {"destination": {"icao": "LTAC", "iata": "ESB", "name": "Esenbo\u011fa, Ankara", "shortName": "Esenbo\u011fa", "municipalityName": "Ankara", "location": {"lat": 40.1281, "lon": 32.9951}, "countryCode": "TR"}, "averageDailyFlights": 0.29, "operators": [{"name": "Turkish"}]}, {"destination": {"icao": "LTAI", "iata": "AYT", "name": "Antalya, Antalya", "municipalityName": "Antalya", "location": {"lat": 36.8987, "lon": 30.8005}, "countryCode": "TR"}, "averageDailyFlights": 0.29, "operators": [{"name": "SunExpress"}]}, {"destination": {"icao": "ZBAA", "iata": "PEK", "name": "Beijing Capital, Beijing", "shortName": "Capital", "municipalityName": "Beijing", "location": {"lat": 40.0801, "lon": 116.585}, "countryCode": "CN"}, "averageDailyFlights": 0.29, "operators": [{"name": "Air China LTD"}]}, {"destination": {"icao": "ENBR", "iata": "BGO", "name": "Bergen , Flesland, Bergen", "shortName": "Flesland", "municipalityName": "Bergen", "location": {"lat": 60.2934, "lon": 5.21814}, "countryCode": "NO"}, "averageDailyFlights": 0.29, "operators": [{"name": "Air France"}]}, {"destination": {"icao": "GMFF", "iata": "FEZ", "name": "Sa\u00efss, Fes", "shortName": "Sa\u00efss", "municipalityName": "Fes", "location": {"lat": 33.9273, "lon": -4.97796}, "countryCode": "MA"}, "averageDailyFlights": 0.29, "operators": [{"name": "Air Arabia Maroc"}]}, {"destination": {"icao": "GCFV", "iata": "FUE", "name": "Fuerteventura, Fuerteventura Island", "shortName": "Fuerteventura", "municipalityName": "Fuerteventura Island", "location": {"lat": 28.4527, "lon": -13.8638}, "countryCode": "ES"}, "averageDailyFlights": 0.29, "operators": [{"name": "easyJet"}]}, {"destination": {"icao": "LIMJ", "iata": "GOA", "name": "Genoa Cristoforo Colombo, Genova", "shortName": "Genoa Cristoforo Colombo", "municipalityName": "Genova", "location": {"lat": 44.4133, "lon": 8.837499}, "countryCode": "IT"}, "averageDailyFlights": 0.29, "operators": [{"name": "Volotea"}]}, {"destination": {"icao": "LOWI", "iata": "INN", "name": "Innsbruck, Innsbruck", "municipalityName": "Innsbruck", "location": {"lat": 47.2602, "lon": 11.343999}, "countryCode": "AT"}, "averageDailyFlights": 0.29, "operators": [{"name": "Air France"}]}, {"destination": {"icao": "LTBJ", "iata": "ADB", "name": "Adnan Menderes, \u0130zmir", "shortName": "Adnan Menderes", "municipalityName": "\u0130zmir", "location": {"lat": 38.2924, "lon": 27.157}, "countryCode": "TR"}, "averageDailyFlights": 0.29, "operators": [{"name": "SunExpress"}]}, {"destination": {"icao": "EPKT", "iata": "KTW", "name": "Katowice, Katowice", "municipalityName": "Katowice", "location": {"lat": 50.4743, "lon": 19.08}, "countryCode": "PL"}, "averageDailyFlights": 0.29, "operators": [{"name": "ASL Airlines Belgium"}]}, {"destination": {"icao": "HELX", "iata": "LXR", "name": "Luxor, Luxor", "municipalityName": "Luxor", "location": {"lat": 25.671, "lon": 32.7066}, "countryCode": "EG"}, "averageDailyFlights": 0.29, "operators": [{"name": "Air Cairo"}, {"name": "FlyEgypt"}]}, {"destination": {"icao": "EGNX", "iata": "EMA", "name": "East Midlands, Nottingham", "shortName": "East Midlands", "municipalityName": "Nottingham", "location": {"lat": 52.8311, "lon": -1.32806}, "countryCode": "GB"}, "averageDailyFlights": 0.29, "operators": [{"name": "EAT Leipzig"}, {"name": "NPT"}]}, {"destination": {"icao": "LICJ", "iata": "PMO", "name": "Falcone\u2013Borsellino, Palermo", "shortName": "Falcone\u2013Borsellino", "municipalityName": "Palermo", "location": {"lat": 38.176, "lon": 13.090999}, "countryCode": "IT"}, "averageDailyFlights": 0.29, "operators": [{"name": "easyJet"}]}, {"destination": {"icao": "DGAA", "iata": "ACC", "name": "Kotoka, Accra", "shortName": "Kotoka", "municipalityName": "Accra", "location": {"lat": 5.605189, "lon": -0.166786}, "countryCode": "GH"}, "averageDailyFlights": 0.29, "operators": [{"name": "Air France"}]}, {"destination": {"icao": "FEFF", "iata": "BGF", "name": "Bangui M'Poko, Bangui", "shortName": "M'Poko", "municipalityName": "Bangui", "location": {"lat": 4.398479, "lon": 18.5188}, "countryCode": "CF"}, "averageDailyFlights": 0.29, "operators": [{"name": "Air France"}]}, {"destination": {"icao": "GBYD", "iata": "BJL", "name": "Banjul, Banjul", "municipalityName": "Banjul", "location": {"lat": 13.338, "lon": -16.6522}, "countryCode": "GM"}, "averageDailyFlights": 0.29, "operators": [{"name": "Air France"}]}, {"destination": {"icao": "GQNN", "iata": "NKC", "name": "Nouakchott, Nouakchott", "municipalityName": "Nouakchott", "location": {"lat": 18.0982, "lon": -15.948499}, "countryCode": "MR"}, "averageDailyFlights": 0.29, "operators": [{"name": "Air France"}]}, {"destination": {"icao": "DFFD", "iata": "OUA", "name": "Ouagadougou, Ouagadougou", "municipalityName": "Ouagadougou", "location": {"lat": 12.353199, "lon": -1.51242}, "countryCode": "BF"}, "averageDailyFlights": 0.29, "operators": [{"name": "Air France"}]}, {"destination": {"icao": "LPPD", "iata": "PDL", "name": "Jo\u00e3o Paulo II, Ponta Delgada", "shortName": "Jo\u00e3o Paulo II", "municipalityName": "Ponta Delgada", "location": {"lat": 37.7412, "lon": -25.6979}, "countryCode": "PT"}, "averageDailyFlights": 0.29, "operators": [{"name": "Azores"}]}, {"destination": {"icao": "EFRO", "iata": "RVN", "name": "Rovaniemi, Rovaniemi", "municipalityName": "Rovaniemi", "location": {"lat": 66.5648, "lon": 25.8304}, "countryCode": "FI"}, "averageDailyFlights": 0.29, "operators": [{"name": "Air France"}]}, {"destination": {"icao": "LEST", "iata": "SCQ", "name": "Santiago de Compostela, Santiago de Compostela", "municipalityName": "Santiago de Compostela", "location": {"lat": 42.8963, "lon": -8.41514}, "countryCode": "ES"}, "averageDailyFlights": 0.29, "operators": [{"name": "Vueling"}]}, {"destination": {"icao": "OIIE", "iata": "IKA", "name": "Imam Khomeini, Tehran", "shortName": "Imam Khomeini", "municipalityName": "Tehran", "location": {"lat": 35.4161, "lon": 51.1522}, "countryCode": "IR"}, "averageDailyFlights": 0.29, "operators": [{"name": "Iran Air"}]}, {"destination": {"icao": "GMFO", "iata": "OUD", "name": "Angads, Oujda", "shortName": "Angads", "municipalityName": "Oujda", "location": {"lat": 34.7872, "lon": -1.92399}, "countryCode": "MA"}, "averageDailyFlights": 0.29, "operators": [{"name": "Air Arabia Maroc"}]}, {"destination": {"icao": "UAAA", "iata": "ALA", "localCode": "\u0410\u041b\u0410", "name": "Almaty, Almaty", "municipalityName": "Almaty", "location": {"lat": 43.3521, "lon": 77.0405}, "countryCode": "KZ"}, "averageDailyFlights": 0.14, "operators": [{"name": "CMA"}]}, {"destination": {"icao": "DAUB", "iata": "BSK", "name": "Biskra, Biskra", "municipalityName": "Biskra", "location": {"lat": 34.7933, "lon": 5.73823}, "countryCode": "DZ"}, "averageDailyFlights": 0.14, "operators": [{"name": "Air Algerie"}]}, {"destination": {"icao": "LDDU", "iata": "DBV", "name": "Dubrovnik, Dubrovnik", "municipalityName": "Dubrovnik", "location": {"lat": 42.5614, "lon": 18.2682}, "countryCode": "HR"}, "averageDailyFlights": 0.14, "operators": [{"name": "FHM"}]}, {"destination": {"icao": "HDAM", "iata": "JIB", "name": "Djibouti-Ambouli, Djibouti City", "shortName": "Djibouti-Ambouli", "municipalityName": "Djibouti City", "location": {"lat": 11.5473, "lon": 43.1595}, "countryCode": "DJ"}, "averageDailyFlights": 0.14, "operators": [{"name": "Air France"}]}, {"destination": {"icao": "DAUO", "iata": "ELU", "name": "Guemar, Guemar", "municipalityName": "Guemar", "location": {"lat": 33.5114, "lon": 6.77679}, "countryCode": "DZ"}, "averageDailyFlights": 0.14, "operators": [{"name": "Air Algerie"}]}, {"destination": {"icao": "HEGN", "iata": "HRG", "name": "Hurghada, Hurghada", "municipalityName": "Hurghada", "location": {"lat": 27.1783, "lon": 33.7994}, "countryCode": "EG"}, "averageDailyFlights": 0.14, "operators": [{"name": "ITY"}]}, {"destination": {"icao": "EFIV", "iata": "IVL", "name": "Ivalo, Ivalo", "municipalityName": "Ivalo", "location": {"lat": 68.6073, "lon": 27.4053}, "countryCode": "FI"}, "averageDailyFlights": 0.14, "operators": [{"name": "SmartWings"}]}, {"destination": {"icao": "OEAO", "iata": "ULH", "name": "Majeed Bin Abdulaziz, Al Ula", "shortName": "Majeed Bin Abdulaziz", "municipalityName": "Al Ula", "location": {"lat": 26.48, "lon": 38.128887}, "countryCode": "SA"}, "averageDailyFlights": 0.14, "operators": [{"name": "Saudia"}]}, {"destination": {"icao": "EYKA", "iata": "KUN", "localCode": "KUN", "name": "Kaunas, Kaunas", "municipalityName": "Kaunas", "location": {"lat": 54.9639, "lon": 24.0848}, "countryCode": "LT"}, "averageDailyFlights": 0.14, "operators": [{"name": "ASL Airlines Belgium"}]}, {"destination": {"icao": "LUKK", "iata": "KIV", "localCode": "\u041a\u0428\u041d", "name": "Chi\u015fin\u0103u, Chi\u015fin\u0103u", "municipalityName": "Chi\u015fin\u0103u", "location": {"lat": 46.9277, "lon": 28.931}, "countryCode": "MD"}, "averageDailyFlights": 0.14, "operators": [{"name": "Fly One"}]}, {"destination": {"icao": "KMEM", "iata": "MEM", "name": "Memphis, Memphis", "municipalityName": "Memphis", "location": {"lat": 35.0424, "lon": -89.9767}, "countryCode": "US"}, "averageDailyFlights": 0.14, "operators": [{"name": "FedEx"}]}, {"destination": {"icao": "LEMH", "iata": "MAH", "name": "Menorca, Menorca Island", "shortName": "Menorca", "municipalityName": "Menorca Island", "location": {"lat": 39.8626, "lon": 4.218649}, "countryCode": "ES"}, "averageDailyFlights": 0.14, "operators": [{"name": "SmartWings"}]}, {"destination": {"icao": "DNAA", "iata": "ABV", "name": "Nnamdi Azikiwe, Abuja", "shortName": "Nnamdi Azikiwe", "municipalityName": "Abuja", "location": {"lat": 9.00679, "lon": 7.263169}, "countryCode": "NG"}, "averageDailyFlights": 0.14, "operators": [{"name": "Air France"}]}, {"destination": {"icao": "FTTJ", "iata": "NDJ", "name": "N'Djamena, N'Djamena", "municipalityName": "N'Djamena", "location": {"lat": 12.1337, "lon": 15.034}, "countryCode": "TD"}, "averageDailyFlights": 0.14, "operators": [{"name": "Air France"}]}, {"destination": {"icao": "CYQB", "iata": "YQB", "name": "Quebec Jean Lesage, Quebec", "shortName": "Jean Lesage", "municipalityName": "Quebec", "location": {"lat": 46.7911, "lon": -71.3933}, "countryCode": "CA"}, "averageDailyFlights": 0.14, "operators": [{"name": "Air Transat"}]}, {"destination": {"icao": "LOWS", "iata": "SZG", "name": "Salzburg, Salzburg", "municipalityName": "Salzburg", "location": {"lat": 47.7933, "lon": 13.0043}, "countryCode": "AT"}, "averageDailyFlights": 0.14, "operators": [{"name": "Air France"}]}, {"destination": {"icao": "ENTC", "iata": "TOS", "name": "Troms\u00f8, Troms\u00f8", "municipalityName": "Troms\u00f8", "location": {"lat": 69.6833, "lon": 18.9189}, "countryCode": "NO"}, "averageDailyFlights": 0.14, "operators": [{"name": "Air France"}]}, {"destination": {"name": "Atar"}, "averageDailyFlights": 0.14, "operators": [{"name": "ASL  France"}]}, {"destination": {"name": "Guangzhou"}, "averageDailyFlights": 0.14, "operators": [{"name": "China Southern"}]}, {"destination": {"name": "Seoul"}, "averageDailyFlights": 0.14, "operators": [{"name": "Korean Air"}]}]}]